{
  "nodos": {
    "P1": {
      "nombre": "Colca",
      "lat": -11.8422,
      "lon": -77.0647,
      "tipo": "poi"
    },
    "P2": {
      "nombre": "Ladrillos Pirámide",
      "lat": -11.8586,
      "lon": -77.0583,
      "tipo": "poi"
    },
    "P3": {
      "nombre": "Parque Mundialito",
      "lat": -11.8576,
      "lon": -77.0682,
      "tipo": "poi"
    },
    "P4": {
      "nombre": "Condominios Parques",
      "lat": -11.859,
      "lon": -77.058,
      "tipo": "poi"
    },
    "P5": {
      "nombre": "Casa Reposo Santa Paula",
      "lat": -11.8565,
      "lon": -77.0595,
      "tipo": "poi"
    },
    "P6": {
      "nombre": "Parque El Pacífico",
      "lat": -11.8514,
      "lon": -77.0716,
      "tipo": "poi"
    },
    "P7": {
      "nombre": "Spa El Roble",
      "lat": -11.8495,
      "lon": -77.073,
      "tipo": "poi"
    },
    "P8": {
      "nombre": "Colegio Carabayllo",
      "lat": -11.843,
      "lon": -77.0615,
      "tipo": "poi"
    },
    "P9": {
      "nombre": "Polideportivo Perú Gol",
      "lat": -11.8481,
      "lon": -77.0736,
      "tipo": "poi"
    },
    "P10": {
      "nombre": "Tranquera Santa Rosa",
      "lat": -11.854,
      "lon": -77.068,
      "tipo": "poi"
    },
    "P11": {
      "nombre": "Plaza Vea",
      "lat": -11.8631,
      "lon": -77.0719,
      "tipo": "poi"
    },
    "P12": {
      "nombre": "Hospital Sergio Bernales",
      "lat": -11.8556,
      "lon": -77.0654,
      "tipo": "poi"
    },
    "P13": {
      "nombre": "Mercado Ciudad Pescador",
      "lat": -11.8598,
      "lon": -77.0689,
      "tipo": "poi"
    },
    "P14": {
      "nombre": "Paradero Panamericana",
      "lat": -11.8642,
      "lon": -77.0728,
      "tipo": "poi"
    },
    "P15": {
      "nombre": "Municipalidad",
      "lat": -11.8589,
      "lon": -77.0711,
      "tipo": "poi"
    },
    "P16": {
      "nombre": "Banco de la Nación",
      "lat": -11.8625,
      "lon": -77.0708,
      "tipo": "poi"
    },
    "P17": {
      "nombre": "Comisaría",
      "lat": -11.8612,
      "lon": -77.0695,
      "tipo": "poi"
    },
    "P18": {
      "nombre": "Mega Plaza",
      "lat": -11.8498,
      "lon": -77.0615,
      "tipo": "poi"
    }
  },
  "grafo": {}
}